wikidata_site_name,repd_site_name,repd_long,repd_lat
A’Chruach Wind Farm,A'Chruach (Phase 1),-5.310216220516910,56.15276760132370
A’Chruach Wind Farm,A'Chruach (Phase 2),-5.310195316193860,56.12444914249390
Aikengall Community Wind Farm,Aikengall,-2.4900662877040900,55.917208733816000
Aikengall Community Wind Farm,"Aikengall II, Wester Dod Community Wind Farm",-2.4900662877040900,55.917208733816000
Aikengall Community Wind Farm,Aikengall IIa Community Wind Farm,-2.4525902607503500,55.89341637689040
Airies Wind Farm,Airies Farm,-4.657736096679620,54.802050805497600
Arecleoch Wind Farm,Arecleoch Wind Farm (extension),-4.797053507264140,55.06878497205820
Bad a Cheo Wind Farm,Bad a Cheo Wind Farm,-3.4291930081059200,58.420462483226400
Baillie Wind Farm,Baillie Wind Farm,-3.6770209864280100,58.56792108721410
Beinn Tharsuinn Wind Farm,Beinn Tharsuinn Extension (Beinn nan Oighrean),-4.248151114965530,57.78822535079500
Bhlaraidh Wind Farm,Bhlaraidh Wind Farm Extension,-4.661787159504260,57.25135904241670
Braes of Doune Wind Farm,Braes O'Doune,-4.0589374267598900,56.269828915366
Brockloch Rig Wind Farm,Windy Standard III Wind Farm (Brockloch Rig Phase 2),-4.241713992738740,55.27640560464840
Broken Cross wind farm,Broken Cross (Former Surface Mine),-3.816174252082660,55.60449893482160
Brook Farm Battery,"Brook Farm, High Street - Battery Energy Storage",-1.3727949035918400,53.02901815512210
Brownieleys Wind Farm,BROWNIELEYS - 3 WIND TURBINES,-2.3791474319975400,56.83990929236930
Burwell Battery,Burwell - Battery Storage,0.3162553469170260,52.27859752317970
Capenhurst Battery,"Capenhurst Lane, Capenhurst - Battery storage",-2.950311529412670,53.26790179892090
Clachan Power Station,Clachan Flats Wind Farm,-4.942889825389990,56.28809278304760
Clachan Power Station,Clachan Flats Wind Farm,-4.942889825389990,56.28809278304760
Coire Na Cloiche Wind Farm,Coire Na Cloiche Wind Farm,-4.373160505979300,57.76961921131170
Corby Power Station,Corby Biomass Plant,-0.6783170707286420,52.50860736609460
Cottam Development Centre,Cottam Wind Farm,-0.8028584415153530,53.31056725870520
Cottam Development Centre,Cottam wind farm,-0.7850283336044290,53.32322368413550
Crystal Rig Wind Farm,Crystal Rig Wind Farm Phase 2a,-2.529311373538810,55.89948068296660
Crystal Rig Wind Farm,Crystal Rig Wind Farm Phase III,-2.534479571986370,55.92641320134760
Crystal Rig Wind Farm,Crystal Rig Wind Farm Phase IV,-2.5277610613052500,55.90308132519690
Cwm Dyli,Cwm Dyli,-4.033371510611080,53.04254670694440
Dalquhandy Wind Farm,Dalquhandy Windfarm,-4.909575510558890,55.18060663369500
Dalquhandy Wind Farm,Douglas West and Dalquhandy Renewable Energy Project,-3.8901038330510700,55.58735750575260
Dogger Bank A & B Wind Farm Cluster,Dogger Bank A & B (was Creyke Beck A & B),1.667920963906610,55.96733662025410
Dogger Bank B Wind Farm,Dogger Bank A & B (was Creyke Beck A & B),1.667920963906610,55.96733662025410
Dogger Bank A Wind Farm,Dogger Bank A & B (was Creyke Beck A & B),1.667920963906610,55.96733662025410
Dorenell Wind Farm,Dorenell Wind Farm (Previously Site A and B Scaut Hill),-3.131680915723890,57.35089948926070
Douglas West Wind Farm,Douglas West and Dalquhandy Renewable Energy Project,-3.8901038330510700,55.58735750575260
Douglas West Wind Farm,Douglas West Wind Farm (extension),-3.8901038330510700,55.58735750575260
Down Barn Farm Power Station,Down Barn Farm,-1.685550277081230,51.19356553513270
Drax power station,Drax Biomass Power Station - Unit 1,-0.9910967854169030,53.735588909884300
Drax power station,Drax Biomass Power Station - Unit 2,-0.9910967854169030,53.735588909884300
Drax power station,Drax Biomass Power Station - Unit 3,-0.9910967854169030,53.735588909884300
Drax power station,Drax Biomass Power Station - Unit 4,-0.9910967854169030,53.735588909884300
Drax power station,Drax Heron Renewable Energy Park,-0.21531622358969200,53.63876522270780
Drax power station,Drax Ouse Renewable Energy Park,-0.9908267564170760,53.747496343274900
Dudgeon Offshore Wind Farm,Dudgeon East ,0.6134682278857120,53.117460061907200
Dudgeon Offshore Wind Farm,Dudgeon Extension Project,1.1842651430315600,53.14934248593880
East Anglia ONE,East Anglia 1 (EA 1),2.172796159006270,52.13696213020820
East Anglia ONE,East Anglia 1 North (EA 4),2.172796159006270,52.13696213020820
Edinbane Wind Farm,Edinbane Wind Farm,-6.432206098199520,57.46912682028170
European Offshore Wind Deployment Centre,European Offshore Wind Deployment Centre (EOWDC) (Aberdeen Bay - Demonstration site),-2.0728122420190600,57.146199675544400
Fasnakyle Power Station,Fasnakyle Hydro Extension,-4.7945751980639500,57.32719349617860
Fawley Cogen Power Station,Fawley Waste to Energy Plant,-1.379604389048970,50.84849593902490
Ffestiniog Power Station,Ffestiniog,-3.9688901490950700,52.9808324828192
Galloper Offshore Wind Farm,Galloper Wind Farm,2.0399934355980900,51.87999173192820
Garry Hydroelectric Scheme,Great Glen Scheme,-4.721325142179420,57.20163354147990
Goole Fields Wind Farms,Goole Fields,-0.889282907791799,53.66592588012070
Goole Fields Wind Farms,Goole Fields ll Wind Farm,-0.8868023015766810,53.67677911724430
Gunfleet Sands Offshore Wind Farm,Gunfleet Sands - (Demo) Extension,1.191905833412110,51.7030094109693
Gunfleet Sands Offshore Wind Farm,Gunfleet Sands II ,1.2459247308644300,51.727189344092200
Gunfleet Sands Offshore Wind Farm,Gunfleet Sands Offshore Wind Scheme,1.2180120087263900,51.730817943483800
Gwynt y Môr Wind Farm,Gwynt y Mor ,-3.6266486319369400,53.454003441843500
Halsary Wind Farm,Halsary Wind Farm,-3.4444471502354200,58.43089974308120
Harburnhead Wind Farm,Harburnhead Wind Farm,-3.5321721583194200,55.80868120217950
Hill of Glaschyle Wind Farm,Hill of Glaschyle Wind Farm,-3.615587121855940,57.51052023330880
Hill of Towie Wind Farm,Hill of Towie (Drummuir),-3.341046113585470,57.62284105863540
Hill of Towie Wind Farm,Hill of Towie II Wind Farm,-3.341046113585470,57.62284105863540
Hornsea One Offshore Wind Farm,Hornsea 1 - Heron & Njord,1.4207395028468700,53.68154166355050
Hornsea Two Offshore Wind Farm,Hornsea 2 - Optimus and Breesea,1.539986417884590,53.95999818095860
Humber Gateway Wind Farm,Humber Gateway A,0.5006435032059390,53.38746283042490
Hywind Scotland,Hywind Scotland Pilot Park (Hywind 2) Demonstrator,-1.4425753613795900,57.50746300002730
Keadby 2 Power Station,Keadby Wind Farm,-0.7636853474568740,53.61179606734910
Keadby Power Station,Keadby Wind Farm,-0.7636853474568740,53.61179606734910
Keadby Power Station,Keadby Wind Farm,-0.7636853474568740,53.61179606734910
Kilbraur Wind Farm,Kilbraur Windfarm,-4.058804857595990,58.04040163757690
Kilbraur Wind Farm,Kilbraur Windfarm Farlary - Extension,-3.978663007893790,57.9923859389047
Kilbraur Wind Farm,South Kilbraur Wind Farm,-4.061733891148260,58.03566442269130
Kincardine Offshore Wind Farm,Kincardine Offshore Windfarm,-1.873801048322220,56.99728039212570
Kinlochleven Power Station,Kinlochleven Hydro Power Station,-4.96340569912976,56.714572664340600
Langage Power Station,Langage Energy Park - Hydrogen Production Facility,-4.011373390920630,50.389771121190300
Lincs Wind Farm,Centrica (Lincs),0.49807700216191600,53.1841724387018
Lochaber hydroelectric scheme,Lochaber,-5.072590360025990,56.829058038443200
London Array,London Array Phase 1,1.4958316372825300,51.621679300914000
London Array,London Array Phase 2,1.0407684872990600,51.47158009282260
Lochluichart Wind Farm,Lochluichart,-4.816701149722270,57.65459417039500
Lochluichart Wind Farm,Lochluichart (Extension),-4.841364086551650,57.68011343522540
Lochluichart Wind Farm,Lochluichart Extension II,-4.810592686433190,57.67466307098420
Lochluichart Wind Farm,Lochluichart Wind Farm Extension 2,-4.767591644632260,57.69345921871520
Markinch Biomass Plant,Markinch Biomass CHP Plant,-3.162254966067160,56.20118041065020
Mid Hill Wind Farm,Mid Hill I,-2.4861638184983100,56.96877477323680
Mid Hill Wind Farm,Fetteresso Wind Farm (Mid Hill 3),-2.3473729586701300,56.9644133044325
Mid Hill Wind Farm,Mid Hill - Phase II,-2.4861638184983100,56.96877477323680
Millennium Wind Farm,Millennium Extension,-4.891170685923520,57.15020001193860
Millennium Wind Farm,Millennium Extension II,-4.883641231931060,57.15522678150700
Moray West Offshore Wind Farm,Moray West Offshore Wind Farm Project,-3.313066434753210,58.06988779060060
Moriston Hydroelectric Scheme,Great Glen Scheme,-4.721325142179420,57.20163354147990
North Kyle Wind Farm,"Breezy Hill, North Kyle Forest Estate - Wind Turbines ",-4.406141196644440,55.32376268526210
North Kyle Wind Farm,North Kyle Energy Project,-4.359660294729490,55.351733647178400
Ormonde Wind Farm,Ormonde Offshore,-3.438590299125100,54.08887184061230
Paul's Hill Wind Farm,Paul's Hill and Extension,-3.4762072217469600,57.44615230158720
Paul's Hill Wind Farm,Pauls Hill 2,-3.4762072217469600,57.44615230158720
Pogbie Wind Farm,Pogbie Wind Farm 1,-2.833022462855170,55.821847948471
Pogbie Wind Farm,Pogbie Wind Farm 2,-2.8421014442512900,55.839451181039400
Race Bank Wind Farm,Race Bank (Phase 1),0.5891743756243720,53.13597422722280
Race Bank Wind Farm,Race Bank (Phase 2),0.5891743756243720,53.13597422722280
Rampion Wind Farm,Rampion Offshore Wind Farm (Hastings Zone),-0.18000325851508200,50.639993607481600
Rampion Wind Farm,"Rampion Wind Farm (Extension), (Rampion 2)",-0.18000325851508200,50.639993607481600
Rheidol Power Station,Rheidol Wind Farm,-3.8772282090321100,52.40758102505450
Robin Rigg Wind Farm,Robin Rigg East,-3.695519374435600,54.76419372170650
Robin Rigg Wind Farm,Robin Rigg West,-3.72930572308968,54.747304715519400
Rosehall Wind Farm,Rosehall Hill Forest Windfarm,-4.546950243728650,57.995624776435700
Rothes Wind Farm,Rothes Wind (Cairn Uish),-3.362957508939730,57.537263750192800
Rothes Wind Farm,Rothes Wind Farm (Extension) (II),-3.362957508939730,57.537263750192800
Rothes Wind Farm,Rothes Wind Farm III,-3.3204007461124300,57.51525742392160
Rugeley B Power Station,Rugeley Power Plant Conversion,-1.9129710610383700,52.75395602852580
Sanquhar Community Wind Farm,Sanquhar Community Windfarm,-4.0465703479660300,55.34417698550060
Solutia District Energy,Solutia UK Ltd,-2.9626159436300300,51.56658052283790
Sloy Power Station,Sloy Hydroelectric Power Station - Pumped Hydro Conversion,-4.833848992986930,56.080727702548700
Tom na Clach Wind Farm,Tom Na Clach - Wind Farm Extension,-3.887933297771580,57.384583341633200
Tullo Wind Farm,Tullo Farm,-2.2107583566110300,56.96390980526240
Tullo Wind Farm,Tullo Wind Farm North Extension (Shiels Wind Farm),-2.4101216596856300,56.843997671099200
Tullo Wind Farm,Tullo Wind Farm South (Ext.),-2.4048936889857000,56.82742212676150
Tralorg Wind Farm,Tralorg Wind Farm,-4.8061708857371200,55.2497706457218
Walney Wind Farm,Walney 1,-3.515788862345330,54.03944862079490
Walney Wind Farm,Walney 2,-3.6089668525141200,54.0807359983877
Walney Wind Farm,Walney 3,-3.7400106467008300,54.089994661952900
Westermost Rough Wind Farm,Westermost Rough A,0.5614812934582970,53.097730204706000
Wilton power stations,Wilton,-1.0806947072073200,54.57663081745350
Wilton power stations,Wilton 11 EfW,-1.0967260930948500,54.56735093089090
Wilton power stations,Wilton Centre (Waste AD),-1.0967260930948500,54.56735093089090
Wilton power stations,Wilton International,-1.0967260930948500,54.56735093089090
